{
  "hotels": [
    {
      "hotel_id": "994914",
      "hotel_name_cn": "新宿华盛顿酒店",
      "hotel_name_en": "Shinjuku Washington Hotel",
      "hotel_name_jp": "新宿ワシントンホテル",
      "city_name_cn": "东京",
      "city_name_en": "Tokyo",
      "city_name_jp": "東京",
      "region_name": "新宿地区",
      "address": "东京都新宿区歌舞伎町1-30-1",
      "country": "Japan",
      "search_count": 1000,
      "latitude": 35.6938,
      "longitude": 139.7034,
      "price_range": "¥8,000-15,000",
      "star_rating": 3
    },
    {
      "hotel_id": "25457196",
      "hotel_name_cn": "利夫马克斯酒店-东京大冢站前店",
      "hotel_name_en": "HOTEL LiVEMAX Tokyo Otsuka-Ekimae",
      "hotel_name_jp": "ホテルリブマックス東京大塚駅前",
      "city_name_cn": "东京",
      "city_name_en": "Tokyo",
      "city_name_jp": "東京",
      "region_name": "池袋地区",
      "address": "东京都丰岛区大冢1-1-1",
      "country": "Japan",
      "search_count": 800,
      "latitude": 35.7314,
      "longitude": 139.7289,
      "price_range": "¥6,000-12,000",
      "star_rating": 3
    },
    {
      "hotel_id": "104430812",
      "hotel_name_cn": "东京秋叶原N+酒店",
      "hotel_name_en": "N+HOTEL Akihabara",
      "hotel_name_jp": "N+ホテル秋葉原",
      "city_name_cn": "东京",
      "city_name_en": "Tokyo",
      "city_name_jp": "東京",
      "region_name": "秋叶原地区",
      "address": "东京都千代田区外神田1-1-1",
      "country": "Japan",
      "search_count": 1200,
      "latitude": 35.7023,
      "longitude": 139.7745,
      "price_range": "¥7,000-14,000",
      "star_rating": 3
    },
    {
      "hotel_id": "45586346",
      "hotel_name_cn": "浅草吉居酒店·琢居",
      "hotel_name_en": "Asakusa YOSHII Hotel",
      "hotel_name_jp": "浅草吉居ホテル・琢居",
      "city_name_cn": "东京",
      "city_name_en": "Tokyo",
      "city_name_jp": "東京",
      "region_name": "上野/浅草地区",
      "address": "东京都台东区浅草1-1-1",
      "country": "Japan",
      "search_count": 900,
      "latitude": 35.7148,
      "longitude": 139.7967,
      "price_range": "¥9,000-18,000",
      "star_rating": 4
    },
    {
      "hotel_id": "688061",
      "hotel_name_cn": "MYSTAYS 上野入谷口酒店",
      "hotel_name_en": "HOTEL MYSTAYS Ueno Iriyaguchi",
      "hotel_name_jp": "ホテルマイステイズ上野入谷口",
      "city_name_cn": "东京",
      "city_name_en": "Tokyo",
      "city_name_jp": "東京",
      "region_name": "上野/浅草地区",
      "address": "东京都台东区上野1-1-1",
      "country": "Japan",
      "search_count": 1100,
      "latitude": 35.7138,
      "longitude": 139.7770,
      "price_range": "¥8,000-16,000",
      "star_rating": 3
    },
    {
      "hotel_id": "品川王子大酒店东塔",
      "hotel_name_cn": "品川王子大酒店东塔",
      "hotel_name_en": "Shinagawa Prince Hotel East Tower",
      "hotel_name_jp": "品川プリンスホテルイーストタワー",
      "city_name_cn": "东京",
      "city_name_en": "Tokyo",
      "city_name_jp": "東京",
      "region_name": "品川地区",
      "address": "东京都港区高轮4-10-30",
      "country": "Japan",
      "search_count": 1500,
      "latitude": 35.6286,
      "longitude": 139.7389,
      "price_range": "¥15,000-30,000",
      "star_rating": 4
    },
    {
      "hotel_id": "东京日本桥N+酒店",
      "hotel_name_cn": "东京日本桥N+酒店",
      "hotel_name_en": "Nplus Hotel Tokyo Nihonbashi",
      "hotel_name_jp": "Nプラスホテル東京日本橋",
      "city_name_cn": "东京",
      "city_name_en": "Tokyo",
      "city_name_jp": "東京",
      "region_name": "东京站/日本桥地区",
      "address": "东京都中央区日本桥1-1-1",
      "country": "Japan",
      "search_count": 1300,
      "latitude": 35.6812,
      "longitude": 139.7671,
      "price_range": "¥12,000-25,000",
      "star_rating": 4
    },
    {
      "hotel_id": "日暮里 阿尔蒙特酒店",
      "hotel_name_cn": "日暮里 阿尔蒙特酒店",
      "hotel_name_en": "Almont Hotel Nippori",
      "hotel_name_jp": "アルモントホテル日暮里",
      "city_name_cn": "东京",
      "city_name_en": "Tokyo",
      "city_name_jp": "東京",
      "region_name": "上野/浅草地区",
      "address": "东京都荒川区西日暮里1-1-1",
      "country": "Japan",
      "search_count": 700,
      "latitude": 35.7278,
      "longitude": 139.7668,
      "price_range": "¥6,000-12,000",
      "star_rating": 3
    },
    {
      "hotel_id": "东京秋叶原N+酒店(2号店)",
      "hotel_name_cn": "东京秋叶原N+酒店(2号店)",
      "hotel_name_en": "N+HOTEL Akihabara No.2",
      "hotel_name_jp": "N+ホテル秋葉原2号店",
      "city_name_cn": "东京",
      "city_name_en": "Tokyo",
      "city_name_jp": "東京",
      "region_name": "东京站/日本桥地区",
      "address": "东京都千代田区外神田2-2-2",
      "country": "Japan",
      "search_count": 1000,
      "latitude": 35.7023,
      "longitude": 139.7745,
      "price_range": "¥7,000-14,000",
      "star_rating": 3
    },
    {
      "hotel_id": "三井花园酒店银座筑地",
      "hotel_name_cn": "三井花园酒店银座筑地",
      "hotel_name_en": "Mitsui Garden Hotel Ginza Tsukiji",
      "hotel_name_jp": "三井ガーデンホテル銀座築地",
      "city_name_cn": "东京",
      "city_name_en": "Tokyo",
      "city_name_jp": "東京",
      "region_name": "银座/筑地地区",
      "address": "东京都中央区筑地1-1-1",
      "country": "Japan",
      "search_count": 1400,
      "latitude": 35.6654,
      "longitude": 139.7704,
      "price_range": "¥18,000-35,000",
      "star_rating": 4
    },
    {
      "hotel_id": "大阪威斯汀酒店",
      "hotel_name_cn": "大阪威斯汀酒店",
      "hotel_name_en": "The Westin Osaka",
      "hotel_name_jp": "ウェスティンホテル大阪",
      "city_name_cn": "大阪",
      "city_name_en": "Osaka",
      "city_name_jp": "大阪",
      "region_name": "梅田地区",
      "address": "大阪府大阪市北区梅田1-1-1",
      "country": "Japan",
      "search_count": 1600,
      "latitude": 34.7024,
      "longitude": 135.4959,
      "price_range": "¥20,000-40,000",
      "star_rating": 5
    },
    {
      "hotel_id": "大阪丽思卡尔顿酒店",
      "hotel_name_cn": "大阪丽思卡尔顿酒店",
      "hotel_name_en": "The Ritz-Carlton Osaka",
      "hotel_name_jp": "ザ・リッツ・カールトン大阪",
      "city_name_cn": "大阪",
      "city_name_en": "Osaka",
      "city_name_jp": "大阪",
      "region_name": "梅田地区",
      "address": "大阪府大阪市北区梅田2-2-2",
      "country": "Japan",
      "search_count": 1800,
      "latitude": 34.7024,
      "longitude": 135.4959,
      "price_range": "¥35,000-70,000",
      "star_rating": 5
    },
    {
      "hotel_id": "大阪难波东方酒店",
      "hotel_name_cn": "大阪难波东方酒店",
      "hotel_name_en": "Hotel Oriental Express Osaka Namba",
      "hotel_name_jp": "ホテルオリエンタルエクスプレス大阪難波",
      "city_name_cn": "大阪",
      "city_name_en": "Osaka",
      "city_name_jp": "大阪",
      "region_name": "难波地区",
      "address": "大阪府大阪市中央区难波3-3-3",
      "country": "Japan",
      "search_count": 1200,
      "latitude": 34.6667,
      "longitude": 135.5000,
      "price_range": "¥8,000-16,000",
      "star_rating": 3
    },
    {
      "hotel_id": "大阪心斋桥酒店",
      "hotel_name_cn": "大阪心斋桥酒店",
      "hotel_name_en": "Hotel Shinsaibashi Osaka",
      "hotel_name_jp": "ホテル心斎橋大阪",
      "city_name_cn": "大阪",
      "city_name_en": "Osaka",
      "city_name_jp": "大阪",
      "region_name": "心斋桥地区",
      "address": "大阪府大阪市中央区心斋桥4-4-4",
      "country": "Japan",
      "search_count": 1100,
      "latitude": 34.6667,
      "longitude": 135.5000,
      "price_range": "¥7,000-14,000",
      "star_rating": 3
    },
    {
      "hotel_id": "大阪天王寺酒店",
      "hotel_name_cn": "大阪天王寺酒店",
      "hotel_name_en": "Hotel Tennoji Osaka",
      "hotel_name_jp": "ホテル天王寺大阪",
      "city_name_cn": "大阪",
      "city_name_en": "Osaka",
      "city_name_jp": "大阪",
      "region_name": "天王寺地区",
      "address": "大阪府大阪市天王寺区天王寺5-5-5",
      "country": "Japan",
      "search_count": 900,
      "latitude": 34.6667,
      "longitude": 135.5000,
      "price_range": "¥6,000-12,000",
      "star_rating": 3
    },
    {
      "hotel_id": "京都威斯汀都酒店",
      "hotel_name_cn": "京都威斯汀都酒店",
      "hotel_name_en": "The Westin Miyako Kyoto",
      "hotel_name_jp": "ウェスティンホテル都京都",
      "city_name_cn": "京都",
      "city_name_en": "Kyoto",
      "city_name_jp": "京都",
      "region_name": "东山地区",
      "address": "京都府京都市东山区粟田口华顶町1-1-1",
      "country": "Japan",
      "search_count": 1700,
      "latitude": 35.0116,
      "longitude": 135.7681,
      "price_range": "¥25,000-50,000",
      "star_rating": 5
    },
    {
      "hotel_id": "京都四条乌丸酒店",
      "hotel_name_cn": "京都四条乌丸酒店",
      "hotel_name_en": "Hotel Shijo Karasuma Kyoto",
      "hotel_name_jp": "ホテル四条烏丸京都",
      "city_name_cn": "京都",
      "city_name_en": "Kyoto",
      "city_name_jp": "京都",
      "region_name": "四条地区",
      "address": "京都府京都市下京区四条通乌丸东入6-6-6",
      "country": "Japan",
      "search_count": 1300,
      "latitude": 35.0116,
      "longitude": 135.7681,
      "price_range": "¥10,000-20,000",
      "star_rating": 4
    },
    {
      "hotel_id": "京都祗园酒店",
      "hotel_name_cn": "京都祗园酒店",
      "hotel_name_en": "Hotel Gion Kyoto",
      "hotel_name_jp": "ホテル祇園京都",
      "city_name_cn": "京都",
      "city_name_en": "Kyoto",
      "city_name_jp": "京都",
      "region_name": "祗园地区",
      "address": "京都府京都市东山区祗园町7-7-7",
      "country": "Japan",
      "search_count": 1400,
      "latitude": 35.0116,
      "longitude": 135.7681,
      "price_range": "¥15,000-30,000",
      "star_rating": 4
    },
    {
      "hotel_id": "京都清水寺酒店",
      "hotel_name_cn": "京都清水寺酒店",
      "hotel_name_en": "Hotel Kiyomizu Kyoto",
      "hotel_name_jp": "ホテル清水寺京都",
      "city_name_cn": "京都",
      "city_name_en": "Kyoto",
      "city_name_jp": "京都",
      "region_name": "清水寺地区",
      "address": "京都府京都市东山区清水8-8-8",
      "country": "Japan",
      "search_count": 1200,
      "latitude": 35.0116,
      "longitude": 135.7681,
      "price_range": "¥12,000-25,000",
      "star_rating": 4
    },
    {
      "hotel_id": "京都岚山酒店",
      "hotel_name_cn": "京都岚山酒店",
      "hotel_name_en": "Hotel Arashiyama Kyoto",
      "hotel_name_jp": "ホテル嵐山京都",
      "city_name_cn": "京都",
      "city_name_en": "Kyoto",
      "city_name_jp": "京都",
      "region_name": "岚山地区",
      "address": "京都府京都市右京区岚山9-9-9",
      "country": "Japan",
      "search_count": 1100,
      "latitude": 35.0116,
      "longitude": 135.7681,
      "price_range": "¥18,000-35,000",
      "star_rating": 4
    },
    {
      "hotel_id": "横滨皇家花园酒店",
      "hotel_name_cn": "横滨皇家花园酒店",
      "hotel_name_en": "Yokohama Royal Park Hotel",
      "hotel_name_jp": "横浜ロイヤルパークホテル",
      "city_name_cn": "横滨",
      "city_name_en": "Yokohama",
      "city_name_jp": "横浜",
      "region_name": "港未来地区",
      "address": "神奈川县横滨市西区港未来2-2-1",
      "country": "Japan",
      "search_count": 1300,
      "latitude": 35.4437,
      "longitude": 139.6380,
      "price_range": "¥20,000-40,000",
      "star_rating": 5
    },
    {
      "hotel_id": "横滨关内酒店",
      "hotel_name_cn": "横滨关内酒店",
      "hotel_name_en": "Hotel Kannai Yokohama",
      "hotel_name_jp": "ホテル関内横浜",
      "city_name_cn": "横滨",
      "city_name_en": "Yokohama",
      "city_name_jp": "横浜",
      "region_name": "关内地区",
      "address": "神奈川县横滨市中区关内3-3-3",
      "country": "Japan",
      "search_count": 1000,
      "latitude": 35.4437,
      "longitude": 139.6380,
      "price_range": "¥8,000-16,000",
      "star_rating": 3
    },
    {
      "hotel_id": "横滨中华街酒店",
      "hotel_name_cn": "横滨中华街酒店",
      "hotel_name_en": "Hotel Chinatown Yokohama",
      "hotel_name_jp": "ホテル中華街横浜",
      "city_name_cn": "横滨",
      "city_name_en": "Yokohama",
      "city_name_jp": "横浜",
      "region_name": "中华街地区",
      "address": "神奈川县横滨市中区山下町4-4-4",
      "country": "Japan",
      "search_count": 900,
      "latitude": 35.4437,
      "longitude": 139.6380,
      "price_range": "¥7,000-14,000",
      "star_rating": 3
    },
    {
      "hotel_id": "名古屋威斯汀城堡酒店",
      "hotel_name_cn": "名古屋威斯汀城堡酒店",
      "hotel_name_en": "The Westin Nagoya Castle",
      "hotel_name_jp": "ウェスティンホテル名古屋キャッスル",
      "city_name_cn": "名古屋",
      "city_name_en": "Nagoya",
      "city_name_jp": "名古屋",
      "region_name": "荣地区",
      "address": "爱知县名古屋市中区荣5-5-5",
      "country": "Japan",
      "search_count": 1400,
      "latitude": 35.1815,
      "longitude": 136.9066,
      "price_range": "¥18,000-35,000",
      "star_rating": 5
    },
    {
      "hotel_id": "名古屋大须酒店",
      "hotel_name_cn": "名古屋大须酒店",
      "hotel_name_en": "Hotel Osu Nagoya",
      "hotel_name_jp": "ホテル大須名古屋",
      "city_name_cn": "名古屋",
      "city_name_en": "Nagoya",
      "city_name_jp": "名古屋",
      "region_name": "大须地区",
      "address": "爱知县名古屋市中区大须6-6-6",
      "country": "Japan",
      "search_count": 1100,
      "latitude": 35.1815,
      "longitude": 136.9066,
      "price_range": "¥9,000-18,000",
      "star_rating": 3
    },
    {
      "hotel_id": "名古屋站前酒店",
      "hotel_name_cn": "名古屋站前酒店",
      "hotel_name_en": "Hotel Nagoya Station",
      "hotel_name_jp": "ホテル名古屋駅前",
      "city_name_cn": "名古屋",
      "city_name_en": "Nagoya",
      "city_name_jp": "名古屋",
      "region_name": "名古屋站地区",
      "address": "爱知县名古屋市中村区名古屋站7-7-7",
      "country": "Japan",
      "search_count": 1200,
      "latitude": 35.1815,
      "longitude": 136.9066,
      "price_range": "¥10,000-20,000",
      "star_rating": 4
    },
    {
      "hotel_id": "神户美利坚公园东方酒店",
      "hotel_name_cn": "神户美利坚公园东方酒店",
      "hotel_name_en": "Kobe Meriken Park Oriental Hotel",
      "hotel_name_jp": "神戸メリケンパークオリエンタルホテル",
      "city_name_cn": "神户",
      "city_name_en": "Kobe",
      "city_name_jp": "神戸",
      "region_name": "港地区",
      "address": "兵库县神户市中央区港岛8-8-8",
      "country": "Japan",
      "search_count": 1500,
      "latitude": 34.6901,
      "longitude": 135.1955,
      "price_range": "¥25,000-50,000",
      "star_rating": 5
    },
    {
      "hotel_id": "神户三宫酒店",
      "hotel_name_cn": "神户三宫酒店",
      "hotel_name_en": "Hotel Sannomiya Kobe",
      "hotel_name_jp": "ホテル三宮神戸",
      "city_name_cn": "神户",
      "city_name_en": "Kobe",
      "city_name_jp": "神戸",
      "region_name": "三宫地区",
      "address": "兵库县神户市中央区三宫町9-9-9",
      "country": "Japan",
      "search_count": 1200,
      "latitude": 34.6901,
      "longitude": 135.1955,
      "price_range": "¥12,000-25,000",
      "star_rating": 4
    },
    {
      "hotel_id": "神户元町酒店",
      "hotel_name_cn": "神户元町酒店",
      "hotel_name_en": "Hotel Motomachi Kobe",
      "hotel_name_jp": "ホテル元町神戸",
      "city_name_cn": "神户",
      "city_name_en": "Kobe",
      "city_name_jp": "神戸",
      "region_name": "元町地区",
      "address": "兵库县神户市中央区元町通10-10-10",
      "country": "Japan",
      "search_count": 1000,
      "latitude": 34.6901,
      "longitude": 135.1955,
      "price_range": "¥8,000-16,000",
      "star_rating": 3
    },
    {
      "hotel_id": "福冈博多酒店",
      "hotel_name_cn": "福冈博多酒店",
      "hotel_name_en": "Hotel Hakata Fukuoka",
      "hotel_name_jp": "ホテル博多福岡",
      "city_name_cn": "福冈",
      "city_name_en": "Fukuoka",
      "city_name_jp": "福岡",
      "region_name": "博多地区",
      "address": "福冈县福冈市博多区博多站前11-11-11",
      "country": "Japan",
      "search_count": 1300,
      "latitude": 33.5902,
      "longitude": 130.4017,
      "price_range": "¥10,000-20,000",
      "star_rating": 4
    },
    {
      "hotel_id": "福冈天神酒店",
      "hotel_name_cn": "福冈天神酒店",
      "hotel_name_en": "Hotel Tenjin Fukuoka",
      "hotel_name_jp": "ホテル天神福岡",
      "city_name_cn": "福冈",
      "city_name_en": "Fukuoka",
      "city_name_jp": "福岡",
      "region_name": "天神地区",
      "address": "福冈县福冈市中央区天神12-12-12",
      "country": "Japan",
      "search_count": 1400,
      "latitude": 33.5902,
      "longitude": 130.4017,
      "price_range": "¥15,000-30,000",
      "star_rating": 4
    },
    {
      "hotel_id": "福冈中洲酒店",
      "hotel_name_cn": "福冈中洲酒店",
      "hotel_name_en": "Hotel Nakasu Fukuoka",
      "hotel_name_jp": "ホテル中洲福岡",
      "city_name_cn": "福冈",
      "city_name_en": "Fukuoka",
      "city_name_jp": "福岡",
      "region_name": "中洲地区",
      "address": "福冈县福冈市博多区中洲13-13-13",
      "country": "Japan",
      "search_count": 1100,
      "latitude": 33.5902,
      "longitude": 130.4017,
      "price_range": "¥8,000-16,000",
      "star_rating": 3
    },
    {
      "hotel_id": "札幌大通酒店",
      "hotel_name_cn": "札幌大通酒店",
      "hotel_name_en": "Hotel Odori Sapporo",
      "hotel_name_jp": "ホテル大通札幌",
      "city_name_cn": "札幌",
      "city_name_en": "Sapporo",
      "city_name_jp": "札幌",
      "region_name": "大通地区",
      "address": "北海道札幌市中央区大通西14-14-14",
      "country": "Japan",
      "search_count": 1200,
      "latitude": 43.0618,
      "longitude": 141.3545,
      "price_range": "¥12,000-25,000",
      "star_rating": 4
    },
    {
      "hotel_id": "札幌薄野酒店",
      "hotel_name_cn": "札幌薄野酒店",
      "hotel_name_en": "Hotel Susukino Sapporo",
      "hotel_name_jp": "ホテル薄野札幌",
      "city_name_cn": "札幌",
      "city_name_en": "Sapporo",
      "city_name_jp": "札幌",
      "region_name": "薄野地区",
      "address": "北海道札幌市中央区南5条西15-15-15",
      "country": "Japan",
      "search_count": 1000,
      "latitude": 43.0618,
      "longitude": 141.3545,
      "price_range": "¥8,000-16,000",
      "star_rating": 3
    },
    {
      "hotel_id": "札幌站前酒店",
      "hotel_name_cn": "札幌站前酒店",
      "hotel_name_en": "Hotel Sapporo Station",
      "hotel_name_jp": "ホテル札幌駅前",
      "city_name_cn": "札幌",
      "city_name_en": "Sapporo",
      "city_name_jp": "札幌",
      "region_name": "札幌站地区",
      "address": "北海道札幌市北区北6条西16-16-16",
      "country": "Japan",
      "search_count": 1300,
      "latitude": 43.0618,
      "longitude": 141.3545,
      "price_range": "¥10,000-20,000",
      "star_rating": 4
    },
    {
      "hotel_id": "仙台威斯汀酒店",
      "hotel_name_cn": "仙台威斯汀酒店",
      "hotel_name_en": "The Westin Sendai",
      "hotel_name_jp": "ウェスティンホテル仙台",
      "city_name_cn": "仙台",
      "city_name_en": "Sendai",
      "city_name_jp": "仙台",
      "region_name": "仙台站地区",
      "address": "宫城县仙台市青叶区中央17-17-17",
      "country": "Japan",
      "search_count": 1400,
      "latitude": 38.2688,
      "longitude": 140.8721,
      "price_range": "¥18,000-35,000",
      "star_rating": 5
    },
    {
      "hotel_id": "仙台一番町酒店",
      "hotel_name_cn": "仙台一番町酒店",
      "hotel_name_en": "Hotel Ichibancho Sendai",
      "hotel_name_jp": "ホテル一番町仙台",
      "city_name_cn": "仙台",
      "city_name_en": "Sendai",
      "city_name_jp": "仙台",
      "region_name": "一番町地区",
      "address": "宫城县仙台市青叶区一番町18-18-18",
      "country": "Japan",
      "search_count": 1100,
      "latitude": 38.2688,
      "longitude": 140.8721,
      "price_range": "¥12,000-25,000",
      "star_rating": 4
    },
    {
      "hotel_id": "广岛格兰王子酒店",
      "hotel_name_cn": "广岛格兰王子酒店",
      "hotel_name_en": "Grand Prince Hotel Hiroshima",
      "hotel_name_jp": "グランドプリンスホテル広島",
      "city_name_cn": "广岛",
      "city_name_en": "Hiroshima",
      "city_name_jp": "広島",
      "region_name": "广岛站地区",
      "address": "广岛县广岛市中区基町19-19-19",
      "country": "Japan",
      "search_count": 1300,
      "latitude": 34.3853,
      "longitude": 132.4553,
      "price_range": "¥20,000-40,000",
      "star_rating": 5
    },
    {
      "hotel_id": "广岛本通酒店",
      "hotel_name_cn": "广岛本通酒店",
      "hotel_name_en": "Hotel Hondori Hiroshima",
      "hotel_name_jp": "ホテル本通広島",
      "city_name_cn": "广岛",
      "city_name_en": "Hiroshima",
      "city_name_jp": "広島",
      "region_name": "本通地区",
      "address": "广岛县广岛市中区本通20-20-20",
      "country": "Japan",
      "search_count": 1000,
      "latitude": 34.3853,
      "longitude": 132.4553,
      "price_range": "¥8,000-16,000",
      "star_rating": 3
    },
    {
      "hotel_id": "奈良东大寺酒店",
      "hotel_name_cn": "奈良东大寺酒店",
      "hotel_name_en": "Hotel Todaiji Nara",
      "hotel_name_jp": "ホテル東大寺奈良",
      "city_name_cn": "奈良",
      "city_name_en": "Nara",
      "city_name_jp": "奈良",
      "region_name": "东大寺地区",
      "address": "奈良县奈良市杂司町21-21-21",
      "country": "Japan",
      "search_count": 900,
      "latitude": 34.6851,
      "longitude": 135.8050,
      "price_range": "¥15,000-30,000",
      "star_rating": 4
    },
    {
      "hotel_id": "长野善光寺酒店",
      "hotel_name_cn": "长野善光寺酒店",
      "hotel_name_en": "Hotel Zenkoji Nagano",
      "hotel_name_jp": "ホテル善光寺長野",
      "city_name_cn": "长野",
      "city_name_en": "Nagano",
      "city_name_jp": "長野",
      "region_name": "善光寺地区",
      "address": "长野县长野市元善町22-22-22",
      "country": "Japan",
      "search_count": 800,
      "latitude": 36.6489,
      "longitude": 138.1948,
      "price_range": "¥12,000-25,000",
      "star_rating": 4
    },
    {
      "hotel_id": "金泽兼六园酒店",
      "hotel_name_cn": "金泽兼六园酒店",
      "hotel_name_en": "Hotel Kenrokuen Kanazawa",
      "hotel_name_jp": "ホテル兼六園金沢",
      "city_name_cn": "金泽",
      "city_name_en": "Kanazawa",
      "city_name_jp": "金沢",
      "region_name": "兼六园地区",
      "address": "石川县金泽市兼六町23-23-23",
      "country": "Japan",
      "search_count": 1200,
      "latitude": 36.5613,
      "longitude": 136.6562,
      "price_range": "¥18,000-35,000",
      "star_rating": 4
    },
    {
      "hotel_id": "冲绳那霸酒店",
      "hotel_name_cn": "冲绳那霸酒店",
      "hotel_name_en": "Hotel Naha Okinawa",
      "hotel_name_jp": "ホテル那覇沖縄",
      "city_name_cn": "冲绳",
      "city_name_en": "Okinawa",
      "city_name_jp": "沖縄",
      "region_name": "那霸地区",
      "address": "冲绳县那霸市国际通24-24-24",
      "country": "Japan",
      "search_count": 1500,
      "latitude": 26.2124,
      "longitude": 127.6809,
      "price_range": "¥15,000-30,000",
      "star_rating": 4
    },
    {
      "hotel_id": "函馆五棱郭酒店",
      "hotel_name_cn": "函馆五棱郭酒店",
      "hotel_name_en": "Hotel Goryokaku Hakodate",
      "hotel_name_jp": "ホテル五稜郭函館",
      "city_name_cn": "函馆",
      "city_name_en": "Hakodate",
      "city_name_jp": "函館",
      "region_name": "五棱郭地区",
      "address": "北海道函馆市五棱郭町25-25-25",
      "country": "Japan",
      "search_count": 1000,
      "latitude": 41.7688,
      "longitude": 140.7289,
      "price_range": "¥12,000-25,000",
      "star_rating": 4
    }
  ]
} 